{"meta":{"ucast_i3":0.854,"ucast_skore":0.625,"ano_skore":-0.693,"spolu_skore":0.649,"spd_skore":-0.408,"motoriste_skore":-0.003,"ucast_celkem_pct":68.9,"liberal_skore":0.68,"populist_skore":-0.683},"clusters":{"Města v sociálním napětí":{"median_ucast":67.3,"mean_ano":41.6,"mean_spolu":18.3,"n":41},"Prosperující regiony":{"median_ucast":71.6,"mean_ano":34.1,"mean_spolu":23.7,"n":92},"Vnitřní periferie":{"median_ucast":68.2,"mean_ano":40.7,"mean_spolu":18.3,"n":73}},"orp":[{"name":"Praha","pop":1397880,"skore":73.7,"ano25":19.9,"spolu25":33.9,"stan25":13.4,"pirati25":16.9,"i3":72.8,"i2":78.0,"lat":50.0668,"lon":14.466,"cluster":"Prosperující regiony","ucast25":71.4,"ucast21":70.2,"d_ucast":1.3,"d_ano":2.4,"spd25":5.2,"motor25":5.2,"stacilo25":2.8,"populist25":33.1},{"name":"Benešov","pop":64412,"skore":61.8,"ano25":33.0,"spolu25":23.1,"stan25":13.5,"pirati25":8.8,"i3":76.8,"i2":83.4,"lat":49.7909,"lon":14.6735,"cluster":"Prosperující regiony","ucast25":72.3,"ucast21":69.1,"d_ucast":3.3,"d_ano":6.5,"spd25":6.5,"motor25":8.0,"stacilo25":3.4,"populist25":50.9},{"name":"Beroun","pop":70500,"skore":58.6,"ano25":28.0,"spolu25":27.4,"stan25":13.9,"pirati25":10.3,"i3":71.5,"i2":75.9,"lat":49.9512,"lon":14.0631,"cluster":"Prosperující regiony","ucast25":71.8,"ucast21":69.2,"d_ucast":2.7,"d_ano":5.7,"spd25":6.2,"motor25":7.2,"stacilo25":3.7,"populist25":45.1},{"name":"Brandýs n. Lab.-St.Boleslav","pop":124646,"skore":51.3,"ano25":23.2,"spolu25":32.5,"stan25":15.1,"pirati25":10.5,"i3":28.5,"i2":89.6,"lat":50.1763,"lon":14.6207,"cluster":"Prosperující regiony","ucast25":75.2,"ucast21":73.1,"d_ucast":2.1,"d_ano":3.4,"spd25":5.8,"motor25":7.2,"stacilo25":2.7,"populist25":39.0},{"name":"Čáslav","pop":26460,"skore":45.8,"ano25":42.5,"spolu25":18.0,"stan25":10.9,"pirati25":6.9,"i3":29.0,"i2":59.9,"lat":49.8936,"lon":15.4053,"cluster":"Města v sociálním napětí","ucast25":70.4,"ucast21":64.9,"d_ucast":5.5,"d_ano":10.1,"spd25":7.0,"motor25":6.8,"stacilo25":4.3,"populist25":60.5},{"name":"Černošice","pop":161920,"skore":61.3,"ano25":20.3,"spolu25":32.8,"stan25":17.2,"pirati25":12.2,"i3":47.4,"i2":94.7,"lat":49.9709,"lon":14.3413,"cluster":"Prosperující regiony","ucast25":76.0,"ucast21":74.7,"d_ucast":1.2,"d_ano":2.6,"spd25":5.1,"motor25":6.8,"stacilo25":2.7,"populist25":34.9},{"name":"Český Brod","pop":21148,"skore":29.9,"ano25":29.1,"spolu25":24.9,"stan25":14.3,"pirati25":10.2,"i3":17.8,"i2":61.0,"lat":50.0586,"lon":14.8568,"cluster":"Města v sociálním napětí","ucast25":70.1,"ucast21":66.4,"d_ucast":3.7,"d_ano":6.7,"spd25":6.8,"motor25":7.6,"stacilo25":3.4,"populist25":46.8},{"name":"Dobříš","pop":24250,"skore":51.8,"ano25":30.7,"spolu25":25.0,"stan25":14.2,"pirati25":9.8,"i3":62.8,"i2":78.4,"lat":49.7716,"lon":14.2346,"cluster":"Prosperující regiony","ucast25":73.9,"ucast21":70.4,"d_ucast":3.5,"d_ano":8.0,"spd25":5.5,"motor25":7.9,"stacilo25":3.5,"populist25":47.6},{"name":"Hořovice","pop":32062,"skore":47.6,"ano25":34.6,"spolu25":21.4,"stan25":11.6,"pirati25":7.9,"i3":38.8,"i2":78.2,"lat":49.8304,"lon":13.9198,"cluster":"Prosperující regiony","ucast25":72.2,"ucast21":68.3,"d_ucast":3.9,"d_ano":7.5,"spd25":7.4,"motor25":8.8,"stacilo25":4.9,"populist25":55.7},{"name":"Kladno","pop":128902,"skore":44.3,"ano25":33.5,"spolu25":22.2,"stan25":12.0,"pirati25":9.2,"i3":24.6,"i2":44.3,"lat":50.1304,"lon":14.0779,"cluster":"Města v sociálním napětí","ucast25":66.8,"ucast21":63.2,"d_ucast":3.6,"d_ano":6.8,"spd25":8.0,"motor25":7.5,"stacilo25":4.2,"populist25":53.1},{"name":"Kolín","pop":87133,"skore":42.4,"ano25":36.0,"spolu25":16.6,"stan25":16.8,"pirati25":6.9,"i3":35.6,"i2":52.9,"lat":50.0287,"lon":15.1463,"cluster":"Města v sociálním napětí","ucast25":70.2,"ucast21":66.4,"d_ucast":3.8,"d_ano":8.5,"spd25":8.3,"motor25":8.1,"stacilo25":4.3,"populist25":56.8},{"name":"Kralupy nad Vltavou","pop":34565,"skore":52.6,"ano25":31.8,"spolu25":22.8,"stan25":13.6,"pirati25":10.2,"i3":29.2,"i2":77.0,"lat":50.2706,"lon":14.3354,"cluster":"Prosperující regiony","ucast25":68.9,"ucast21":65.9,"d_ucast":3.0,"d_ano":6.1,"spd25":7.0,"motor25":7.8,"stacilo25":3.5,"populist25":50.0},{"name":"Kutná Hora","pop":52105,"skore":47.7,"ano25":36.4,"spolu25":20.1,"stan25":13.4,"pirati25":7.5,"i3":76.6,"i2":42.4,"lat":49.8557,"lon":15.161,"cluster":"Vnitřní periferie","ucast25":69.8,"ucast21":65.4,"d_ucast":4.4,"d_ano":7.6,"spd25":7.7,"motor25":7.6,"stacilo25":4.1,"populist25":55.7},{"name":"Lysá nad Labem","pop":32386,"skore":44.8,"ano25":28.3,"spolu25":23.1,"stan25":15.0,"pirati25":11.1,"i3":24.6,"i2":58.6,"lat":50.1913,"lon":14.8514,"cluster":"Města v sociálním napětí","ucast25":69.7,"ucast21":66.1,"d_ucast":3.6,"d_ano":6.4,"spd25":7.0,"motor25":8.2,"stacilo25":4.0,"populist25":47.4},{"name":"Mělník","pop":46561,"skore":49.3,"ano25":35.1,"spolu25":22.1,"stan25":11.6,"pirati25":7.6,"i3":57.0,"i2":54.2,"lat":50.39,"lon":14.5402,"cluster":"Města v sociálním napětí","ucast25":67.6,"ucast21":63.5,"d_ucast":4.2,"d_ano":8.5,"spd25":7.9,"motor25":8.8,"stacilo25":3.7,"populist25":55.5},{"name":"Mladá Boleslav","pop":118952,"skore":48.5,"ano25":34.1,"spolu25":22.0,"stan25":12.4,"pirati25":7.5,"i3":36.9,"i2":56.1,"lat":50.3837,"lon":14.8807,"cluster":"Města v sociálním napětí","ucast25":70.0,"ucast21":67.1,"d_ucast":2.9,"d_ano":7.0,"spd25":8.1,"motor25":9.1,"stacilo25":3.6,"populist25":54.9},{"name":"Mnichovo Hradiště","pop":18774,"skore":46.4,"ano25":31.1,"spolu25":21.6,"stan25":14.0,"pirati25":8.2,"i3":59.3,"i2":57.9,"lat":50.5326,"lon":14.9881,"cluster":"Města v sociálním napětí","ucast25":72.5,"ucast21":70.1,"d_ucast":2.4,"d_ano":6.1,"spd25":8.6,"motor25":9.2,"stacilo25":4.1,"populist25":53.0},{"name":"Neratovice","pop":33657,"skore":40.8,"ano25":33.9,"spolu25":23.0,"stan25":10.5,"pirati25":8.7,"i3":14.3,"i2":52.8,"lat":50.2675,"lon":14.5229,"cluster":"Města v sociálním napětí","ucast25":67.3,"ucast21":62.5,"d_ucast":4.8,"d_ano":6.4,"spd25":8.7,"motor25":8.2,"stacilo25":3.8,"populist25":54.6},{"name":"Nymburk","pop":42319,"skore":45.3,"ano25":34.5,"spolu25":20.6,"stan25":13.1,"pirati25":8.3,"i3":44.6,"i2":59.9,"lat":50.2235,"lon":15.046,"cluster":"Města v sociálním napětí","ucast25":70.8,"ucast21":66.7,"d_ucast":4.1,"d_ano":6.8,"spd25":7.9,"motor25":8.2,"stacilo25":3.7,"populist25":54.4},{"name":"Poděbrady","pop":32933,"skore":60.7,"ano25":33.5,"spolu25":23.6,"stan25":12.8,"pirati25":8.8,"i3":52.5,"i2":82.6,"lat":50.1909,"lon":15.234,"cluster":"Prosperující regiony","ucast25":72.8,"ucast21":69.5,"d_ucast":3.3,"d_ano":6.8,"spd25":7.4,"motor25":7.0,"stacilo25":3.5,"populist25":51.4},{"name":"Příbram","pop":71947,"skore":51.5,"ano25":37.4,"spolu25":19.7,"stan25":10.8,"pirati25":7.9,"i3":67.8,"i2":47.7,"lat":49.6428,"lon":13.9844,"cluster":"Vnitřní periferie","ucast25":70.2,"ucast21":65.7,"d_ucast":4.5,"d_ano":8.7,"spd25":8.0,"motor25":7.9,"stacilo25":4.7,"populist25":58.0},{"name":"Rakovník","pop":56494,"skore":47.0,"ano25":38.6,"spolu25":18.4,"stan25":10.7,"pirati25":7.6,"i3":55.0,"i2":50.9,"lat":50.0968,"lon":13.7209,"cluster":"Vnitřní periferie","ucast25":69.4,"ucast21":64.3,"d_ucast":5.1,"d_ano":8.2,"spd25":8.2,"motor25":7.9,"stacilo25":4.9,"populist25":59.6},{"name":"Říčany","pop":79901,"skore":62.7,"ano25":22.6,"spolu25":31.6,"stan25":16.5,"pirati25":10.3,"i3":59.7,"i2":95.5,"lat":49.9496,"lon":14.7321,"cluster":"Prosperující regiony","ucast25":76.2,"ucast21":74.6,"d_ucast":1.6,"d_ano":3.9,"spd25":5.7,"motor25":7.7,"stacilo25":2.5,"populist25":38.5},{"name":"Sedlčany","pop":22088,"skore":48.7,"ano25":32.8,"spolu25":22.5,"stan25":14.6,"pirati25":8.0,"i3":76.2,"i2":60.9,"lat":49.6194,"lon":14.3865,"cluster":"Vnitřní periferie","ucast25":70.5,"ucast21":67.6,"d_ucast":2.9,"d_ano":7.9,"spd25":6.7,"motor25":8.3,"stacilo25":3.3,"populist25":51.2},{"name":"Slaný","pop":42604,"skore":34.3,"ano25":37.1,"spolu25":20.3,"stan25":11.1,"pirati25":7.8,"i3":36.7,"i2":37.6,"lat":50.266,"lon":14.0867,"cluster":"Města v sociálním napětí","ucast25":67.4,"ucast21":62.3,"d_ucast":5.1,"d_ano":8.2,"spd25":8.2,"motor25":8.3,"stacilo25":3.7,"populist25":57.3},{"name":"Vlašim","pop":26525,"skore":50.0,"ano25":38.3,"spolu25":20.7,"stan25":11.7,"pirati25":6.6,"i3":55.3,"i2":70.5,"lat":49.6694,"lon":14.989,"cluster":"Prosperující regiony","ucast25":71.7,"ucast21":67.9,"d_ucast":3.8,"d_ano":7.6,"spd25":7.7,"motor25":7.6,"stacilo25":4.2,"populist25":57.8},{"name":"Votice","pop":12971,"skore":35.7,"ano25":40.4,"spolu25":18.9,"stan25":11.9,"pirati25":6.5,"i3":57.2,"i2":44.9,"lat":49.6214,"lon":14.6594,"cluster":"Vnitřní periferie","ucast25":70.8,"ucast21":66.3,"d_ucast":4.6,"d_ano":8.0,"spd25":6.8,"motor25":8.0,"stacilo25":4.0,"populist25":59.2},{"name":"Blatná","pop":13838,"skore":46.0,"ano25":36.0,"spolu25":21.7,"stan25":10.0,"pirati25":7.2,"i3":41.4,"i2":57.1,"lat":49.4346,"lon":13.8775,"cluster":"Vnitřní periferie","ucast25":69.8,"ucast21":66.8,"d_ucast":3.0,"d_ano":10.8,"spd25":9.1,"motor25":7.5,"stacilo25":4.7,"populist25":57.3},{"name":"České Budějovice","pop":168393,"skore":67.8,"ano25":29.6,"spolu25":27.7,"stan25":12.3,"pirati25":8.3,"i3":63.0,"i2":77.5,"lat":49.0202,"lon":14.4688,"cluster":"Prosperující regiony","ucast25":70.3,"ucast21":68.7,"d_ucast":1.6,"d_ano":6.1,"spd25":7.4,"motor25":7.0,"stacilo25":4.3,"populist25":48.2},{"name":"Český Krumlov","pop":41551,"skore":52.0,"ano25":34.5,"spolu25":24.4,"stan25":9.8,"pirati25":7.7,"i3":100.0,"i2":40.0,"lat":48.765,"lon":14.1973,"cluster":"Vnitřní periferie","ucast25":67.0,"ucast21":63.9,"d_ucast":3.2,"d_ano":8.4,"spd25":8.7,"motor25":7.1,"stacilo25":4.6,"populist25":54.9},{"name":"Dačice","pop":18355,"skore":47.1,"ano25":38.3,"spolu25":23.5,"stan25":7.2,"pirati25":6.0,"i3":55.7,"i2":57.1,"lat":49.0619,"lon":15.4025,"cluster":"Vnitřní periferie","ucast25":70.3,"ucast21":67.5,"d_ucast":2.8,"d_ano":11.1,"spd25":8.2,"motor25":7.1,"stacilo25":6.0,"populist25":59.6},{"name":"Jindřichův Hradec","pop":46406,"skore":62.1,"ano25":36.8,"spolu25":21.3,"stan25":10.5,"pirati25":7.3,"i3":75.1,"i2":65.6,"lat":49.1336,"lon":15.0421,"cluster":"Prosperující regiony","ucast25":69.3,"ucast21":65.6,"d_ucast":3.8,"d_ano":8.8,"spd25":8.6,"motor25":6.8,"stacilo25":5.2,"populist25":57.4},{"name":"Kaplice","pop":20104,"skore":41.5,"ano25":40.3,"spolu25":18.7,"stan25":8.6,"pirati25":5.5,"i3":60.3,"i2":37.5,"lat":48.6974,"lon":14.5319,"cluster":"Vnitřní periferie","ucast25":66.0,"ucast21":61.1,"d_ucast":4.9,"d_ano":9.8,"spd25":9.2,"motor25":8.5,"stacilo25":5.6,"populist25":63.6},{"name":"Milevsko","pop":18063,"skore":41.5,"ano25":36.3,"spolu25":22.8,"stan25":10.6,"pirati25":7.5,"i3":46.3,"i2":61.1,"lat":49.4571,"lon":14.3318,"cluster":"Vnitřní periferie","ucast25":69.0,"ucast21":65.2,"d_ucast":3.9,"d_ano":10.9,"spd25":6.8,"motor25":6.9,"stacilo25":5.6,"populist25":55.6},{"name":"Písek","pop":54849,"skore":50.5,"ano25":36.0,"spolu25":23.1,"stan25":9.6,"pirati25":8.2,"i3":64.3,"i2":58.4,"lat":49.3513,"lon":14.1533,"cluster":"Vnitřní periferie","ucast25":70.5,"ucast21":65.4,"d_ucast":5.1,"d_ano":9.4,"spd25":8.3,"motor25":7.0,"stacilo25":4.8,"populist25":56.2},{"name":"Prachatice","pop":33775,"skore":46.3,"ano25":37.8,"spolu25":22.2,"stan25":9.9,"pirati25":7.2,"i3":77.9,"i2":44.7,"lat":48.9612,"lon":13.9906,"cluster":"Vnitřní periferie","ucast25":67.4,"ucast21":63.1,"d_ucast":4.3,"d_ano":10.0,"spd25":8.0,"motor25":7.1,"stacilo25":4.6,"populist25":57.5},{"name":"Soběslav","pop":22659,"skore":45.9,"ano25":37.3,"spolu25":23.1,"stan25":10.9,"pirati25":6.4,"i3":48.0,"i2":56.1,"lat":49.2376,"lon":14.7159,"cluster":"Vnitřní periferie","ucast25":70.2,"ucast21":66.7,"d_ucast":3.5,"d_ano":8.5,"spd25":6.9,"motor25":6.8,"stacilo25":4.9,"populist25":56.0},{"name":"Strakonice","pop":45205,"skore":43.3,"ano25":38.8,"spolu25":19.7,"stan25":10.8,"pirati25":7.2,"i3":50.2,"i2":50.8,"lat":49.2381,"lon":13.8782,"cluster":"Vnitřní periferie","ucast25":68.5,"ucast21":65.3,"d_ucast":3.1,"d_ano":8.4,"spd25":8.4,"motor25":7.2,"stacilo25":4.8,"populist25":59.3},{"name":"Tábor","pop":81602,"skore":61.2,"ano25":34.2,"spolu25":23.4,"stan25":11.4,"pirati25":8.6,"i3":75.1,"i2":65.9,"lat":49.4206,"lon":14.6783,"cluster":"Prosperující regiony","ucast25":70.8,"ucast21":67.6,"d_ucast":3.2,"d_ano":7.2,"spd25":7.3,"motor25":6.6,"stacilo25":4.9,"populist25":53.1},{"name":"Trhové Sviny","pop":19687,"skore":36.8,"ano25":40.2,"spolu25":20.2,"stan25":8.8,"pirati25":6.5,"i3":71.8,"i2":49.8,"lat":48.8268,"lon":14.7035,"cluster":"Vnitřní periferie","ucast25":69.6,"ucast21":66.4,"d_ucast":3.2,"d_ano":10.3,"spd25":8.6,"motor25":7.0,"stacilo25":5.4,"populist25":61.2},{"name":"Třeboň","pop":24803,"skore":55.4,"ano25":38.2,"spolu25":22.1,"stan25":10.2,"pirati25":6.5,"i3":84.9,"i2":51.7,"lat":48.9712,"lon":14.8388,"cluster":"Vnitřní periferie","ucast25":70.6,"ucast21":67.5,"d_ucast":3.1,"d_ano":8.4,"spd25":8.3,"motor25":6.6,"stacilo25":4.7,"populist25":57.9},{"name":"Týn nad Vltavou","pop":14092,"skore":55.6,"ano25":36.2,"spolu25":21.6,"stan25":10.3,"pirati25":7.3,"i3":56.0,"i2":66.7,"lat":49.2126,"lon":14.4418,"cluster":"Prosperující regiony","ucast25":69.3,"ucast21":65.5,"d_ucast":3.8,"d_ano":10.0,"spd25":7.9,"motor25":8.2,"stacilo25":4.7,"populist25":57.1},{"name":"Vimperk","pop":17286,"skore":54.7,"ano25":33.7,"spolu25":22.7,"stan25":12.4,"pirati25":6.5,"i3":90.7,"i2":50.0,"lat":49.0301,"lon":13.7195,"cluster":"Vnitřní periferie","ucast25":67.0,"ucast21":63.7,"d_ucast":3.2,"d_ano":8.2,"spd25":8.4,"motor25":7.7,"stacilo25":5.5,"populist25":55.3},{"name":"Vodňany","pop":12559,"skore":29.4,"ano25":40.3,"spolu25":20.9,"stan25":9.8,"pirati25":6.9,"i3":36.0,"i2":42.0,"lat":49.1454,"lon":14.1253,"cluster":"Vnitřní periferie","ucast25":69.3,"ucast21":64.6,"d_ucast":4.8,"d_ano":9.2,"spd25":7.7,"motor25":7.7,"stacilo25":4.0,"populist25":59.6},{"name":"Blovice","pop":12635,"skore":34.5,"ano25":41.0,"spolu25":16.0,"stan25":12.7,"pirati25":6.6,"i3":50.1,"i2":62.9,"lat":49.5939,"lon":13.5746,"cluster":"Vnitřní periferie","ucast25":71.3,"ucast21":67.1,"d_ucast":4.2,"d_ano":9.3,"spd25":9.7,"motor25":6.7,"stacilo25":4.0,"populist25":61.4},{"name":"Domažlice","pop":40810,"skore":41.6,"ano25":39.2,"spolu25":19.5,"stan25":10.0,"pirati25":6.2,"i3":58.2,"i2":43.6,"lat":49.454,"lon":12.8741,"cluster":"Vnitřní periferie","ucast25":65.6,"ucast21":64.3,"d_ucast":1.3,"d_ano":11.0,"spd25":10.0,"motor25":7.5,"stacilo25":4.7,"populist25":61.4},{"name":"Horažďovice","pop":11372,"skore":43.2,"ano25":40.7,"spolu25":18.2,"stan25":10.6,"pirati25":6.8,"i3":42.2,"i2":60.1,"lat":49.3544,"lon":13.6398,"cluster":"Vnitřní periferie","ucast25":70.5,"ucast21":65.8,"d_ucast":4.7,"d_ano":7.8,"spd25":8.6,"motor25":7.0,"stacilo25":4.6,"populist25":60.9},{"name":"Horšovský Týn","pop":15104,"skore":20.9,"ano25":44.0,"spolu25":15.5,"stan25":8.9,"pirati25":5.7,"i3":26.1,"i2":20.8,"lat":49.5492,"lon":12.9569,"cluster":"Vnitřní periferie","ucast25":65.0,"ucast21":60.4,"d_ucast":4.6,"d_ano":11.9,"spd25":10.2,"motor25":8.0,"stacilo25":5.0,"populist25":67.1},{"name":"Klatovy","pop":51670,"skore":56.3,"ano25":38.5,"spolu25":21.4,"stan25":8.8,"pirati25":6.5,"i3":84.7,"i2":59.9,"lat":49.3406,"lon":13.2752,"cluster":"Vnitřní periferie","ucast25":69.6,"ucast21":66.2,"d_ucast":3.4,"d_ano":8.1,"spd25":9.5,"motor25":7.5,"stacilo25":4.6,"populist25":60.2},{"name":"Kralovice","pop":22902,"skore":51.0,"ano25":41.8,"spolu25":18.1,"stan25":10.3,"pirati25":6.4,"i3":72.7,"i2":63.3,"lat":49.9699,"lon":13.3527,"cluster":"Vnitřní periferie","ucast25":70.6,"ucast21":66.1,"d_ucast":4.4,"d_ano":10.0,"spd25":8.5,"motor25":7.6,"stacilo25":4.3,"populist25":62.1},{"name":"Nepomuk","pop":11315,"skore":31.1,"ano25":40.8,"spolu25":16.8,"stan25":11.3,"pirati25":6.1,"i3":56.3,"i2":44.0,"lat":49.4909,"lon":13.6352,"cluster":"Vnitřní periferie","ucast25":70.0,"ucast21":65.0,"d_ucast":5.0,"d_ano":9.4,"spd25":9.0,"motor25":7.7,"stacilo25":5.3,"populist25":62.9},{"name":"Nýřany","pop":60747,"skore":36.5,"ano25":36.3,"spolu25":21.3,"stan25":11.3,"pirati25":7.9,"i3":33.1,"i2":66.7,"lat":49.8185,"lon":13.2115,"cluster":"Města v sociálním napětí","ucast25":69.6,"ucast21":65.1,"d_ucast":4.5,"d_ano":8.7,"spd25":8.9,"motor25":7.9,"stacilo25":3.6,"populist25":56.6},{"name":"Plzeň","pop":208461,"skore":61.1,"ano25":31.0,"spolu25":26.0,"stan25":11.7,"pirati25":10.0,"i3":54.2,"i2":58.9,"lat":49.721,"lon":13.4285,"cluster":"Prosperující regiony","ucast25":67.8,"ucast21":65.5,"d_ucast":2.3,"d_ano":5.1,"spd25":8.3,"motor25":6.4,"stacilo25":3.7,"populist25":49.4},{"name":"Přeštice","pop":23181,"skore":43.5,"ano25":38.4,"spolu25":19.4,"stan25":10.6,"pirati25":6.2,"i3":26.6,"i2":81.4,"lat":49.5727,"lon":13.3321,"cluster":"Prosperující regiony","ucast25":70.6,"ucast21":67.5,"d_ucast":3.1,"d_ano":10.7,"spd25":9.5,"motor25":8.0,"stacilo25":4.3,"populist25":60.1},{"name":"Rokycany","pop":50796,"skore":38.7,"ano25":40.6,"spolu25":18.8,"stan25":10.7,"pirati25":7.2,"i3":59.7,"i2":47.2,"lat":49.7999,"lon":13.6739,"cluster":"Vnitřní periferie","ucast25":69.7,"ucast21":65.7,"d_ucast":4.0,"d_ano":8.9,"spd25":8.2,"motor25":7.2,"stacilo25":4.5,"populist25":60.5},{"name":"Stod","pop":24597,"skore":27.6,"ano25":41.5,"spolu25":17.4,"stan25":10.5,"pirati25":6.8,"i3":27.3,"i2":36.8,"lat":49.6264,"lon":13.1592,"cluster":"Města v sociálním napětí","ucast25":67.1,"ucast21":62.2,"d_ucast":4.9,"d_ano":11.1,"spd25":8.9,"motor25":7.5,"stacilo25":3.9,"populist25":61.8},{"name":"Stříbro","pop":17849,"skore":35.5,"ano25":46.0,"spolu25":14.2,"stan25":8.8,"pirati25":6.7,"i3":67.6,"i2":30.5,"lat":49.7792,"lon":12.9604,"cluster":"Vnitřní periferie","ucast25":65.7,"ucast21":58.1,"d_ucast":7.6,"d_ano":11.9,"spd25":9.3,"motor25":6.8,"stacilo25":5.4,"populist25":67.5},{"name":"Sušice","pop":23680,"skore":54.0,"ano25":37.4,"spolu25":22.2,"stan25":10.2,"pirati25":7.7,"i3":99.2,"i2":45.8,"lat":49.1664,"lon":13.492,"cluster":"Vnitřní periferie","ucast25":69.1,"ucast21":66.8,"d_ucast":2.2,"d_ano":6.6,"spd25":7.5,"motor25":7.1,"stacilo25":4.6,"populist25":56.7},{"name":"Tachov","pop":39521,"skore":37.0,"ano25":46.3,"spolu25":12.7,"stan25":8.1,"pirati25":5.9,"i3":57.0,"i2":22.6,"lat":49.763,"lon":12.6772,"cluster":"Vnitřní periferie","ucast25":64.8,"ucast21":58.3,"d_ucast":6.5,"d_ano":11.8,"spd25":10.6,"motor25":7.5,"stacilo25":6.1,"populist25":70.6},{"name":"Aš","pop":17115,"skore":37.0,"ano25":45.2,"spolu25":12.0,"stan25":7.3,"pirati25":7.1,"i3":36.2,"i2":19.8,"lat":50.2309,"lon":12.2046,"cluster":"Vnitřní periferie","ucast25":54.7,"ucast21":51.0,"d_ucast":3.8,"d_ano":11.0,"spd25":11.8,"motor25":9.1,"stacilo25":4.2,"populist25":70.3},{"name":"Cheb","pop":50912,"skore":45.0,"ano25":41.7,"spolu25":14.9,"stan25":10.9,"pirati25":6.4,"i3":65.1,"i2":24.2,"lat":50.1163,"lon":12.4143,"cluster":"Vnitřní periferie","ucast25":60.4,"ucast21":57.2,"d_ucast":3.2,"d_ano":8.4,"spd25":11.2,"motor25":7.2,"stacilo25":4.7,"populist25":64.9},{"name":"Karlovy Vary","pop":88253,"skore":55.5,"ano25":39.1,"spolu25":18.0,"stan25":12.3,"pirati25":7.0,"i3":82.9,"i2":30.1,"lat":50.1788,"lon":13.0134,"cluster":"Vnitřní periferie","ucast25":62.9,"ucast21":60.2,"d_ucast":2.7,"d_ano":7.7,"spd25":10.0,"motor25":7.0,"stacilo25":3.7,"populist25":59.9},{"name":"Kraslice","pop":12607,"skore":33.5,"ano25":48.5,"spolu25":10.8,"stan25":9.4,"pirati25":5.0,"i3":43.4,"i2":17.2,"lat":50.3211,"lon":12.5551,"cluster":"Vnitřní periferie","ucast25":58.6,"ucast21":52.9,"d_ucast":5.7,"d_ano":11.9,"spd25":10.5,"motor25":7.5,"stacilo25":5.2,"populist25":71.6},{"name":"Mariánské Lázně","pop":25509,"skore":49.7,"ano25":40.2,"spolu25":18.1,"stan25":10.7,"pirati25":6.8,"i3":90.8,"i2":23.7,"lat":49.9796,"lon":12.7175,"cluster":"Vnitřní periferie","ucast25":62.5,"ucast21":58.7,"d_ucast":3.8,"d_ano":8.2,"spd25":10.5,"motor25":6.6,"stacilo25":4.3,"populist25":61.7},{"name":"Ostrov","pop":26314,"skore":52.5,"ano25":40.1,"spolu25":17.3,"stan25":10.8,"pirati25":7.3,"i3":84.6,"i2":31.5,"lat":50.3536,"lon":12.9063,"cluster":"Vnitřní periferie","ucast25":63.1,"ucast21":59.8,"d_ucast":3.3,"d_ano":8.6,"spd25":9.3,"motor25":7.7,"stacilo25":4.0,"populist25":61.0},{"name":"Sokolov","pop":72485,"skore":32.3,"ano25":47.2,"spolu25":12.5,"stan25":10.5,"pirati25":5.7,"i3":33.6,"i2":8.7,"lat":50.1601,"lon":12.6655,"cluster":"Města v sociálním napětí","ucast25":58.8,"ucast21":54.1,"d_ucast":4.7,"d_ano":12.1,"spd25":9.8,"motor25":7.3,"stacilo25":3.9,"populist25":68.1},{"name":"Bílina","pop":19487,"skore":20.5,"ano25":54.6,"spolu25":11.2,"stan25":5.8,"pirati25":4.9,"i3":17.5,"i2":5.4,"lat":50.5398,"lon":13.8049,"cluster":"Města v sociálním napětí","ucast25":56.7,"ucast21":50.1,"d_ucast":6.7,"d_ano":11.8,"spd25":10.2,"motor25":6.7,"stacilo25":4.2,"populist25":75.8},{"name":"Děčín","pop":74323,"skore":45.5,"ano25":42.7,"spolu25":14.2,"stan25":13.1,"pirati25":6.3,"i3":71.3,"i2":13.0,"lat":50.7841,"lon":14.2897,"cluster":"Vnitřní periferie","ucast25":64.1,"ucast21":59.2,"d_ucast":4.9,"d_ano":6.4,"spd25":9.7,"motor25":6.9,"stacilo25":4.3,"populist25":63.7},{"name":"Chomutov","pop":80589,"skore":30.2,"ano25":46.1,"spolu25":13.7,"stan25":9.3,"pirati25":6.7,"i3":28.0,"i2":9.7,"lat":50.4806,"lon":13.3773,"cluster":"Města v sociálním napětí","ucast25":59.7,"ucast21":55.1,"d_ucast":4.6,"d_ano":9.4,"spd25":9.6,"motor25":6.6,"stacilo25":5.1,"populist25":67.5},{"name":"Kadaň","pop":42864,"skore":36.3,"ano25":47.2,"spolu25":14.6,"stan25":9.1,"pirati25":6.2,"i3":52.7,"i2":15.3,"lat":50.3805,"lon":13.2114,"cluster":"Vnitřní periferie","ucast25":59.5,"ucast21":54.1,"d_ucast":5.5,"d_ano":8.9,"spd25":8.9,"motor25":6.9,"stacilo25":3.9,"populist25":67.0},{"name":"Litoměřice","pop":58212,"skore":47.8,"ano25":38.4,"spolu25":18.9,"stan25":10.8,"pirati25":8.5,"i3":52.8,"i2":42.0,"lat":50.5402,"lon":14.2679,"cluster":"Vnitřní periferie","ucast25":66.8,"ucast21":63.2,"d_ucast":3.6,"d_ano":7.0,"spd25":8.7,"motor25":6.8,"stacilo25":4.7,"populist25":58.6},{"name":"Litvínov","pop":35669,"skore":28.7,"ano25":48.7,"spolu25":13.9,"stan25":7.4,"pirati25":6.6,"i3":32.5,"i2":0.0,"lat":50.6087,"lon":13.5496,"cluster":"Města v sociálním napětí","ucast25":59.0,"ucast21":54.4,"d_ucast":4.6,"d_ano":9.2,"spd25":9.0,"motor25":6.4,"stacilo25":5.0,"populist25":69.1},{"name":"Louny","pop":43534,"skore":29.0,"ano25":46.5,"spolu25":17.0,"stan25":7.6,"pirati25":6.6,"i3":23.7,"i2":20.7,"lat":50.3502,"lon":13.8196,"cluster":"Města v sociálním napětí","ucast25":65.0,"ucast21":60.5,"d_ucast":4.5,"d_ano":9.0,"spd25":8.2,"motor25":6.8,"stacilo25":4.4,"populist25":65.9},{"name":"Lovosice","pop":27512,"skore":41.5,"ano25":47.2,"spolu25":14.5,"stan25":9.5,"pirati25":7.0,"i3":26.8,"i2":45.7,"lat":50.4781,"lon":13.996,"cluster":"Města v sociálním napětí","ucast25":67.2,"ucast21":62.8,"d_ucast":4.3,"d_ano":7.2,"spd25":8.2,"motor25":6.7,"stacilo25":4.1,"populist25":66.1},{"name":"Most","pop":71867,"skore":33.1,"ano25":50.4,"spolu25":14.1,"stan25":6.3,"pirati25":6.3,"i3":10.6,"i2":4.9,"lat":50.4859,"lon":13.6544,"cluster":"Města v sociálním napětí","ucast25":57.2,"ucast21":51.9,"d_ucast":5.3,"d_ano":11.5,"spd25":9.2,"motor25":6.9,"stacilo25":4.2,"populist25":70.7},{"name":"Podbořany","pop":15535,"skore":18.1,"ano25":52.2,"spolu25":10.9,"stan25":5.5,"pirati25":4.7,"i3":36.3,"i2":10.8,"lat":50.1908,"lon":13.394,"cluster":"Vnitřní periferie","ucast25":66.9,"ucast21":59.1,"d_ucast":7.8,"d_ano":9.2,"spd25":11.7,"motor25":7.4,"stacilo25":5.2,"populist25":76.5},{"name":"Roudnice nad Labem","pop":33380,"skore":39.3,"ano25":36.6,"spolu25":22.8,"stan25":10.0,"pirati25":8.2,"i3":29.6,"i2":53.7,"lat":50.4037,"lon":14.219,"cluster":"Města v sociálním napětí","ucast25":69.1,"ucast21":66.9,"d_ucast":2.2,"d_ano":7.9,"spd25":7.5,"motor25":7.6,"stacilo25":4.0,"populist25":55.7},{"name":"Rumburk","pop":32072,"skore":39.0,"ano25":45.5,"spolu25":10.1,"stan25":16.2,"pirati25":4.9,"i3":52.3,"i2":13.3,"lat":50.9703,"lon":14.4372,"cluster":"Vnitřní periferie","ucast25":59.1,"ucast21":53.5,"d_ucast":5.6,"d_ano":7.9,"spd25":9.5,"motor25":6.6,"stacilo25":4.1,"populist25":65.7},{"name":"Teplice","pop":108252,"skore":35.2,"ano25":45.0,"spolu25":16.9,"stan25":7.9,"pirati25":7.4,"i3":31.3,"i2":12.7,"lat":50.6526,"lon":13.7901,"cluster":"Města v sociálním napětí","ucast25":60.9,"ucast21":55.8,"d_ucast":5.1,"d_ano":7.8,"spd25":9.3,"motor25":6.7,"stacilo25":3.8,"populist25":64.9},{"name":"Ústí nad Labem","pop":118011,"skore":41.4,"ano25":41.4,"spolu25":16.4,"stan25":11.2,"pirati25":8.8,"i3":38.6,"i2":15.0,"lat":50.6851,"lon":14.0385,"cluster":"Města v sociálním napětí","ucast25":61.2,"ucast21":57.9,"d_ucast":3.3,"d_ano":5.8,"spd25":8.3,"motor25":6.6,"stacilo25":4.1,"populist25":60.4},{"name":"Varnsdorf","pop":19395,"skore":45.1,"ano25":45.0,"spolu25":12.1,"stan25":13.2,"pirati25":4.8,"i3":54.1,"i2":24.3,"lat":50.8804,"lon":14.5587,"cluster":"Vnitřní periferie","ucast25":63.1,"ucast21":57.4,"d_ucast":5.7,"d_ano":7.3,"spd25":10.6,"motor25":7.4,"stacilo25":4.2,"populist25":67.2},{"name":"Žatec","pop":27654,"skore":28.8,"ano25":48.2,"spolu25":14.4,"stan25":7.2,"pirati25":5.4,"i3":28.3,"i2":14.7,"lat":50.3108,"lon":13.5756,"cluster":"Města v sociálním napětí","ucast25":64.3,"ucast21":58.1,"d_ucast":6.2,"d_ano":8.9,"spd25":11.2,"motor25":6.6,"stacilo25":4.1,"populist25":70.1},{"name":"Česká Lípa","pop":76626,"skore":44.3,"ano25":43.5,"spolu25":13.9,"stan25":11.7,"pirati25":6.4,"i3":63.0,"i2":22.2,"lat":50.6275,"lon":14.631,"cluster":"Vnitřní periferie","ucast25":63.2,"ucast21":57.4,"d_ucast":5.8,"d_ano":11.1,"spd25":9.4,"motor25":7.5,"stacilo25":5.0,"populist25":65.4},{"name":"Frýdlant","pop":24544,"skore":36.7,"ano25":45.0,"spolu25":12.3,"stan25":13.3,"pirati25":5.5,"i3":72.2,"i2":17.2,"lat":50.9221,"lon":15.1436,"cluster":"Vnitřní periferie","ucast25":65.5,"ucast21":58.5,"d_ucast":7.0,"d_ano":13.0,"spd25":9.7,"motor25":7.2,"stacilo25":4.3,"populist25":66.2},{"name":"Jablonec nad Nisou","pop":57971,"skore":64.7,"ano25":31.2,"spolu25":21.2,"stan25":15.6,"pirati25":9.4,"i3":57.4,"i2":53.4,"lat":50.7412,"lon":15.173,"cluster":"Prosperující regiony","ucast25":67.5,"ucast21":65.4,"d_ucast":2.1,"d_ano":6.1,"spd25":8.7,"motor25":7.3,"stacilo25":3.7,"populist25":51.0},{"name":"Jilemnice","pop":21726,"skore":70.8,"ano25":27.4,"spolu25":21.4,"stan25":19.2,"pirati25":8.4,"i3":79.9,"i2":87.3,"lat":50.6466,"lon":15.5059,"cluster":"Prosperující regiony","ucast25":73.8,"ucast21":71.9,"d_ucast":1.9,"d_ano":6.7,"spd25":7.9,"motor25":8.0,"stacilo25":4.2,"populist25":47.5},{"name":"Liberec","pop":150640,"skore":64.1,"ano25":31.9,"spolu25":18.7,"stan25":17.6,"pirati25":9.7,"i3":71.3,"i2":49.0,"lat":50.7604,"lon":14.9547,"cluster":"Prosperující regiony","ucast25":68.9,"ucast21":65.9,"d_ucast":3.0,"d_ano":5.6,"spd25":8.4,"motor25":7.0,"stacilo25":3.8,"populist25":51.1},{"name":"Nový Bor","pop":26234,"skore":52.8,"ano25":37.9,"spolu25":15.8,"stan25":16.9,"pirati25":6.6,"i3":64.4,"i2":37.4,"lat":50.7792,"lon":14.5927,"cluster":"Vnitřní periferie","ucast25":67.5,"ucast21":62.6,"d_ucast":4.9,"d_ano":7.1,"spd25":8.3,"motor25":7.3,"stacilo25":4.3,"populist25":57.7},{"name":"Semily","pop":25428,"skore":53.2,"ano25":34.0,"spolu25":17.3,"stan25":17.8,"pirati25":7.6,"i3":54.7,"i2":58.5,"lat":50.5932,"lon":15.3735,"cluster":"Vnitřní periferie","ucast25":69.7,"ucast21":68.2,"d_ucast":1.5,"d_ano":9.0,"spd25":7.8,"motor25":8.2,"stacilo25":4.6,"populist25":54.6},{"name":"Tanvald","pop":20237,"skore":57.1,"ano25":34.6,"spolu25":18.1,"stan25":14.7,"pirati25":6.8,"i3":87.7,"i2":29.8,"lat":50.7683,"lon":15.3394,"cluster":"Vnitřní periferie","ucast25":65.7,"ucast21":62.5,"d_ucast":3.2,"d_ano":8.3,"spd25":10.6,"motor25":7.3,"stacilo25":5.1,"populist25":57.5},{"name":"Turnov","pop":33799,"skore":75.5,"ano25":27.9,"spolu25":21.9,"stan25":20.4,"pirati25":8.5,"i3":77.6,"i2":96.2,"lat":50.5803,"lon":15.1609,"cluster":"Prosperující regiony","ucast25":73.9,"ucast21":72.5,"d_ucast":1.4,"d_ano":6.0,"spd25":7.6,"motor25":7.6,"stacilo25":3.6,"populist25":46.6},{"name":"Železný Brod","pop":12289,"skore":60.3,"ano25":30.9,"spolu25":19.8,"stan25":17.5,"pirati25":7.4,"i3":54.0,"i2":69.6,"lat":50.6667,"lon":15.2576,"cluster":"Prosperující regiony","ucast25":71.7,"ucast21":69.0,"d_ucast":2.7,"d_ano":5.5,"spd25":8.9,"motor25":7.9,"stacilo25":5.0,"populist25":52.7},{"name":"Broumov","pop":15500,"skore":48.0,"ano25":41.7,"spolu25":17.4,"stan25":8.5,"pirati25":7.8,"i3":69.7,"i2":27.2,"lat":50.5987,"lon":16.2681,"cluster":"Vnitřní periferie","ucast25":64.6,"ucast21":60.0,"d_ucast":4.6,"d_ano":9.9,"spd25":10.0,"motor25":6.4,"stacilo25":5.2,"populist25":63.3},{"name":"Dobruška","pop":20208,"skore":56.6,"ano25":31.8,"spolu25":26.4,"stan25":12.0,"pirati25":7.5,"i3":65.7,"i2":80.6,"lat":50.2943,"lon":16.2066,"cluster":"Prosperující regiony","ucast25":73.6,"ucast21":71.3,"d_ucast":2.3,"d_ano":6.2,"spd25":7.6,"motor25":8.0,"stacilo25":3.9,"populist25":51.3},{"name":"Dvůr Králové nad Labem","pop":27119,"skore":50.6,"ano25":34.4,"spolu25":22.0,"stan25":12.0,"pirati25":8.0,"i3":57.7,"i2":56.7,"lat":50.4368,"lon":15.7847,"cluster":"Vnitřní periferie","ucast25":69.4,"ucast21":65.6,"d_ucast":3.7,"d_ano":6.0,"spd25":8.2,"motor25":8.0,"stacilo25":4.4,"populist25":55.1},{"name":"Hořice","pop":18512,"skore":55.1,"ano25":36.6,"spolu25":18.2,"stan25":15.9,"pirati25":6.7,"i3":43.3,"i2":75.9,"lat":50.3682,"lon":15.6124,"cluster":"Prosperující regiony","ucast25":72.4,"ucast21":68.3,"d_ucast":4.2,"d_ano":6.3,"spd25":8.1,"motor25":7.8,"stacilo25":4.0,"populist25":56.4},{"name":"Hradec Králové","pop":150287,"skore":68.1,"ano25":30.9,"spolu25":26.8,"stan25":12.1,"pirati25":9.4,"i3":48.3,"i2":82.3,"lat":50.2217,"lon":15.7482,"cluster":"Prosperující regiony","ucast25":72.5,"ucast21":70.2,"d_ucast":2.3,"d_ano":4.9,"spd25":6.8,"motor25":7.0,"stacilo25":4.1,"populist25":48.8},{"name":"Jaroměř","pop":19617,"skore":49.2,"ano25":37.8,"spolu25":20.0,"stan25":11.4,"pirati25":7.8,"i3":35.4,"i2":56.0,"lat":50.3557,"lon":15.9354,"cluster":"Města v sociálním napětí","ucast25":66.0,"ucast21":62.5,"d_ucast":3.5,"d_ano":8.5,"spd25":8.3,"motor25":7.6,"stacilo25":4.1,"populist25":57.8},{"name":"Jičín","pop":48613,"skore":54.8,"ano25":37.3,"spolu25":18.8,"stan25":14.7,"pirati25":7.0,"i3":66.3,"i2":69.7,"lat":50.405,"lon":15.3301,"cluster":"Vnitřní periferie","ucast25":70.6,"ucast21":67.4,"d_ucast":3.1,"d_ano":7.3,"spd25":7.5,"motor25":7.5,"stacilo25":4.4,"populist25":56.7},{"name":"Kostelec nad Orlicí","pop":25368,"skore":48.0,"ano25":35.8,"spolu25":21.7,"stan25":10.4,"pirati25":7.2,"i3":31.5,"i2":69.9,"lat":50.1277,"lon":16.1367,"cluster":"Prosperující regiony","ucast25":69.2,"ucast21":66.1,"d_ucast":3.1,"d_ano":7.8,"spd25":8.2,"motor25":8.6,"stacilo25":5.0,"populist25":57.6},{"name":"Náchod","pop":60623,"skore":66.8,"ano25":32.0,"spolu25":27.1,"stan25":10.8,"pirati25":8.1,"i3":54.1,"i2":67.8,"lat":50.4622,"lon":16.1447,"cluster":"Prosperující regiony","ucast25":70.2,"ucast21":68.9,"d_ucast":1.4,"d_ano":6.6,"spd25":7.6,"motor25":7.9,"stacilo25":3.7,"populist25":51.2},{"name":"Nová Paka","pop":13288,"skore":58.7,"ano25":31.6,"spolu25":16.2,"stan25":24.0,"pirati25":6.1,"i3":54.9,"i2":76.6,"lat":50.4897,"lon":15.5342,"cluster":"Prosperující regiony","ucast25":71.2,"ucast21":69.1,"d_ucast":2.1,"d_ano":6.7,"spd25":8.5,"motor25":7.2,"stacilo25":4.2,"populist25":51.5},{"name":"Nové Město nad Metují","pop":14007,"skore":60.5,"ano25":30.0,"spolu25":29.4,"stan25":11.7,"pirati25":8.4,"i3":43.0,"i2":87.7,"lat":50.3499,"lon":16.1199,"cluster":"Prosperující regiony","ucast25":74.2,"ucast21":72.4,"d_ucast":1.8,"d_ano":6.8,"spd25":7.1,"motor25":7.1,"stacilo25":3.6,"populist25":47.8},{"name":"Nový Bydžov","pop":18114,"skore":34.2,"ano25":45.5,"spolu25":17.5,"stan25":9.2,"pirati25":5.2,"i3":12.4,"i2":59.5,"lat":50.2523,"lon":15.494,"cluster":"Města v sociálním napětí","ucast25":68.0,"ucast21":62.7,"d_ucast":5.3,"d_ano":11.1,"spd25":8.0,"motor25":7.9,"stacilo25":4.0,"populist25":65.5},{"name":"Rychnov nad Kněžnou","pop":35232,"skore":54.1,"ano25":34.1,"spolu25":22.4,"stan25":10.2,"pirati25":7.3,"i3":57.9,"i2":69.2,"lat":50.1918,"lon":16.3541,"cluster":"Prosperující regiony","ucast25":71.9,"ucast21":68.3,"d_ucast":3.6,"d_ano":7.3,"spd25":9.0,"motor25":9.1,"stacilo25":4.8,"populist25":57.0},{"name":"Trutnov","pop":62368,"skore":64.3,"ano25":33.7,"spolu25":23.9,"stan25":11.1,"pirati25":8.1,"i3":84.1,"i2":46.9,"lat":50.5899,"lon":15.8945,"cluster":"Prosperující regiony","ucast25":68.1,"ucast21":65.3,"d_ucast":2.8,"d_ano":7.2,"spd25":8.1,"motor25":7.6,"stacilo25":4.4,"populist25":53.8},{"name":"Vrchlabí","pop":27067,"skore":66.8,"ano25":30.0,"spolu25":23.1,"stan25":14.8,"pirati25":8.6,"i3":84.6,"i2":66.6,"lat":50.6428,"lon":15.659,"cluster":"Prosperující regiony","ucast25":70.3,"ucast21":69.3,"d_ucast":1.0,"d_ano":6.4,"spd25":8.3,"motor25":8.0,"stacilo25":4.3,"populist25":50.5},{"name":"Česká Třebová","pop":17693,"skore":45.9,"ano25":37.7,"spolu25":20.1,"stan25":9.7,"pirati25":8.6,"i3":15.2,"i2":51.1,"lat":49.8963,"lon":16.4584,"cluster":"Města v sociálním napětí","ucast25":72.2,"ucast21":66.6,"d_ucast":5.6,"d_ano":7.8,"spd25":8.5,"motor25":7.4,"stacilo25":4.7,"populist25":58.2},{"name":"Hlinsko","pop":21054,"skore":49.6,"ano25":42.3,"spolu25":18.8,"stan25":11.4,"pirati25":5.0,"i3":51.7,"i2":74.1,"lat":49.7692,"lon":15.9306,"cluster":"Vnitřní periferie","ucast25":73.4,"ucast21":69.0,"d_ucast":4.5,"d_ano":10.6,"spd25":7.0,"motor25":8.2,"stacilo25":4.7,"populist25":62.3},{"name":"Holice","pop":18702,"skore":48.8,"ano25":34.3,"spolu25":22.7,"stan25":11.1,"pirati25":7.8,"i3":20.9,"i2":94.4,"lat":50.0753,"lon":15.9989,"cluster":"Prosperující regiony","ucast25":72.5,"ucast21":69.1,"d_ucast":3.5,"d_ano":7.6,"spd25":8.2,"motor25":9.0,"stacilo25":4.0,"populist25":55.5},{"name":"Chrudim","pop":85605,"skore":51.0,"ano25":37.0,"spolu25":22.7,"stan25":10.5,"pirati25":6.8,"i3":50.1,"i2":64.5,"lat":49.8875,"lon":15.8252,"cluster":"Prosperující regiony","ucast25":71.2,"ucast21":67.2,"d_ucast":4.0,"d_ano":7.8,"spd25":7.1,"motor25":8.6,"stacilo25":4.3,"populist25":57.1},{"name":"Králíky","pop":8474,"skore":52.8,"ano25":41.1,"spolu25":18.5,"stan25":8.9,"pirati25":6.4,"i3":78.9,"i2":53.5,"lat":50.0922,"lon":16.7528,"cluster":"Vnitřní periferie","ucast25":67.8,"ucast21":61.8,"d_ucast":6.1,"d_ano":9.9,"spd25":8.7,"motor25":6.7,"stacilo25":6.9,"populist25":63.4},{"name":"Lanškroun","pop":23067,"skore":46.1,"ano25":34.3,"spolu25":22.1,"stan25":10.7,"pirati25":7.9,"i3":18.1,"i2":71.6,"lat":49.921,"lon":16.6326,"cluster":"Prosperující regiony","ucast25":71.2,"ucast21":68.5,"d_ucast":2.7,"d_ano":9.0,"spd25":9.0,"motor25":8.0,"stacilo25":4.5,"populist25":55.8},{"name":"Litomyšl","pop":27838,"skore":56.3,"ano25":28.2,"spolu25":29.2,"stan25":14.1,"pirati25":7.6,"i3":56.3,"i2":92.4,"lat":49.8419,"lon":16.2865,"cluster":"Prosperující regiony","ucast25":74.7,"ucast21":72.1,"d_ucast":2.6,"d_ano":6.5,"spd25":7.0,"motor25":7.2,"stacilo25":3.6,"populist25":45.9},{"name":"Moravská Třebová","pop":25887,"skore":35.1,"ano25":44.1,"spolu25":16.7,"stan25":7.2,"pirati25":5.8,"i3":36.1,"i2":47.7,"lat":49.7264,"lon":16.6926,"cluster":"Vnitřní periferie","ucast25":67.9,"ucast21":61.6,"d_ucast":6.2,"d_ano":12.5,"spd25":8.5,"motor25":7.6,"stacilo25":6.9,"populist25":67.1},{"name":"Pardubice","pop":135598,"skore":66.2,"ano25":31.4,"spolu25":27.2,"stan25":11.6,"pirati25":9.0,"i3":48.7,"i2":75.5,"lat":50.064,"lon":15.7677,"cluster":"Prosperující regiony","ucast25":70.5,"ucast21":68.0,"d_ucast":2.5,"d_ano":5.5,"spd25":7.2,"motor25":7.2,"stacilo25":3.9,"populist25":49.6},{"name":"Polička","pop":20041,"skore":52.1,"ano25":33.6,"spolu25":26.8,"stan25":10.6,"pirati25":7.4,"i3":47.2,"i2":71.0,"lat":49.6903,"lon":16.2673,"cluster":"Prosperující regiony","ucast25":72.3,"ucast21":68.9,"d_ucast":3.5,"d_ano":8.7,"spd25":6.9,"motor25":7.6,"stacilo25":4.3,"populist25":52.4},{"name":"Přelouč","pop":26913,"skore":33.3,"ano25":38.2,"spolu25":17.8,"stan25":11.1,"pirati25":7.6,"i3":21.6,"i2":58.6,"lat":50.0315,"lon":15.5304,"cluster":"Města v sociálním napětí","ucast25":71.5,"ucast21":68.1,"d_ucast":3.5,"d_ano":9.2,"spd25":9.5,"motor25":7.7,"stacilo25":5.4,"populist25":60.8},{"name":"Svitavy","pop":30775,"skore":34.8,"ano25":41.6,"spolu25":18.2,"stan25":8.0,"pirati25":7.7,"i3":30.6,"i2":36.9,"lat":49.7223,"lon":16.4795,"cluster":"Vnitřní periferie","ucast25":67.9,"ucast21":62.3,"d_ucast":5.6,"d_ano":10.9,"spd25":8.3,"motor25":7.5,"stacilo25":5.6,"populist25":63.0},{"name":"Ústí nad Orlicí","pop":26320,"skore":53.7,"ano25":31.2,"spolu25":24.7,"stan25":11.7,"pirati25":8.4,"i3":28.7,"i2":74.2,"lat":49.9898,"lon":16.3999,"cluster":"Prosperující regiony","ucast25":73.0,"ucast21":70.4,"d_ucast":2.6,"d_ano":7.2,"spd25":8.1,"motor25":7.7,"stacilo25":4.8,"populist25":51.9},{"name":"Vysoké Mýto","pop":33009,"skore":47.4,"ano25":32.5,"spolu25":24.3,"stan25":11.4,"pirati25":8.1,"i3":22.3,"i2":74.2,"lat":49.963,"lon":16.169,"cluster":"Prosperující regiony","ucast25":72.7,"ucast21":69.4,"d_ucast":3.3,"d_ano":7.5,"spd25":8.2,"motor25":7.9,"stacilo25":4.2,"populist25":52.8},{"name":"Žamberk","pop":29493,"skore":58.4,"ano25":26.7,"spolu25":27.5,"stan25":14.5,"pirati25":8.0,"i3":43.8,"i2":93.4,"lat":50.071,"lon":16.5277,"cluster":"Prosperující regiony","ucast25":74.9,"ucast21":73.4,"d_ucast":1.5,"d_ano":5.9,"spd25":7.2,"motor25":8.1,"stacilo25":4.2,"populist25":46.1},{"name":"Bystřice nad Pernštejnem","pop":19470,"skore":53.5,"ano25":40.6,"spolu25":20.0,"stan25":10.9,"pirati25":6.2,"i3":52.1,"i2":69.9,"lat":49.5195,"lon":16.2639,"cluster":"Prosperující regiony","ucast25":72.1,"ucast21":66.9,"d_ucast":5.2,"d_ano":13.2,"spd25":7.9,"motor25":7.0,"stacilo25":4.8,"populist25":60.3},{"name":"Havlíčkův Brod","pop":54527,"skore":48.7,"ano25":35.6,"spolu25":25.4,"stan25":10.6,"pirati25":7.1,"i3":33.2,"i2":78.2,"lat":49.6226,"lon":15.572,"cluster":"Prosperující regiony","ucast25":72.5,"ucast21":68.9,"d_ucast":3.6,"d_ano":7.9,"spd25":6.5,"motor25":6.4,"stacilo25":5.0,"populist25":53.5},{"name":"Humpolec","pop":18771,"skore":55.4,"ano25":38.6,"spolu25":20.9,"stan25":11.7,"pirati25":7.2,"i3":52.3,"i2":87.6,"lat":49.5558,"lon":15.3004,"cluster":"Prosperující regiony","ucast25":73.8,"ucast21":69.2,"d_ucast":4.6,"d_ano":10.5,"spd25":7.3,"motor25":6.5,"stacilo25":4.9,"populist25":57.3},{"name":"Chotěboř","pop":21775,"skore":50.4,"ano25":39.4,"spolu25":22.9,"stan25":9.7,"pirati25":6.8,"i3":38.0,"i2":78.9,"lat":49.7367,"lon":15.6852,"cluster":"Prosperující regiony","ucast25":74.0,"ucast21":70.1,"d_ucast":3.9,"d_ano":9.1,"spd25":6.4,"motor25":6.8,"stacilo25":5.3,"populist25":57.8},{"name":"Jihlava","pop":105415,"skore":58.2,"ano25":33.9,"spolu25":24.9,"stan25":10.7,"pirati25":7.7,"i3":53.1,"i2":73.1,"lat":49.3709,"lon":15.5792,"cluster":"Prosperující regiony","ucast25":72.0,"ucast21":68.9,"d_ucast":3.1,"d_ano":8.4,"spd25":8.3,"motor25":7.0,"stacilo25":4.4,"populist25":53.6},{"name":"Moravské Budějovice","pop":22890,"skore":36.5,"ano25":41.6,"spolu25":20.6,"stan25":10.9,"pirati25":6.7,"i3":25.2,"i2":66.8,"lat":49.0478,"lon":15.6981,"cluster":"Vnitřní periferie","ucast25":70.2,"ucast21":66.7,"d_ucast":3.5,"d_ano":13.8,"spd25":6.6,"motor25":6.4,"stacilo25":4.7,"populist25":59.3},{"name":"Náměšť nad Oslavou","pop":13531,"skore":56.0,"ano25":42.2,"spolu25":18.6,"stan25":10.8,"pirati25":6.0,"i3":50.9,"i2":86.8,"lat":49.1902,"lon":16.161,"cluster":"Prosperující regiony","ucast25":72.8,"ucast21":69.1,"d_ucast":3.7,"d_ano":13.2,"spd25":7.8,"motor25":6.4,"stacilo25":5.0,"populist25":61.5},{"name":"Nové Město na Moravě","pop":19295,"skore":62.4,"ano25":32.0,"spolu25":28.5,"stan25":12.0,"pirati25":8.1,"i3":68.3,"i2":90.8,"lat":49.5884,"lon":16.1108,"cluster":"Prosperující regiony","ucast25":73.5,"ucast21":70.5,"d_ucast":3.1,"d_ano":7.6,"spd25":6.0,"motor25":6.7,"stacilo25":4.1,"populist25":48.8},{"name":"Pacov","pop":9451,"skore":44.4,"ano25":35.2,"spolu25":14.9,"stan25":27.0,"pirati25":5.2,"i3":36.8,"i2":74.6,"lat":49.4884,"lon":14.9994,"cluster":"Vnitřní periferie","ucast25":72.7,"ucast21":68.3,"d_ucast":4.4,"d_ano":8.3,"spd25":5.7,"motor25":5.6,"stacilo25":4.2,"populist25":50.7},{"name":"Pelhřimov","pop":45996,"skore":47.8,"ano25":35.2,"spolu25":22.1,"stan25":14.8,"pirati25":6.6,"i3":49.1,"i2":69.8,"lat":49.3879,"lon":15.1694,"cluster":"Vnitřní periferie","ucast25":72.1,"ucast21":68.9,"d_ucast":3.2,"d_ano":9.6,"spd25":7.0,"motor25":7.1,"stacilo25":4.4,"populist25":53.7},{"name":"Světlá nad Sázavou","pop":19575,"skore":49.4,"ano25":42.4,"spolu25":19.8,"stan25":9.7,"pirati25":6.3,"i3":56.2,"i2":67.3,"lat":49.6941,"lon":15.3359,"cluster":"Vnitřní periferie","ucast25":72.0,"ucast21":67.1,"d_ucast":4.8,"d_ano":10.7,"spd25":7.2,"motor25":7.0,"stacilo25":5.4,"populist25":61.9},{"name":"Telč","pop":13050,"skore":52.4,"ano25":32.4,"spolu25":28.3,"stan25":10.1,"pirati25":8.1,"i3":61.9,"i2":84.4,"lat":49.1802,"lon":15.4893,"cluster":"Vnitřní periferie","ucast25":72.2,"ucast21":69.0,"d_ucast":3.2,"d_ano":10.3,"spd25":7.3,"motor25":6.8,"stacilo25":4.2,"populist25":50.7},{"name":"Třebíč","pop":73788,"skore":59.5,"ano25":37.3,"spolu25":21.8,"stan25":10.8,"pirati25":7.0,"i3":46.1,"i2":77.6,"lat":49.19,"lon":15.9134,"cluster":"Prosperující regiony","ucast25":72.6,"ucast21":69.2,"d_ucast":3.4,"d_ano":9.1,"spd25":8.3,"motor25":6.7,"stacilo25":5.1,"populist25":57.4},{"name":"Velké Meziříčí","pop":37510,"skore":46.7,"ano25":34.0,"spolu25":23.6,"stan25":14.2,"pirati25":6.9,"i3":25.8,"i2":84.7,"lat":49.3628,"lon":16.0615,"cluster":"Prosperující regiony","ucast25":73.1,"ucast21":69.0,"d_ucast":4.0,"d_ano":9.3,"spd25":7.0,"motor25":7.1,"stacilo25":4.5,"populist25":52.6},{"name":"Žďár nad Sázavou","pop":42603,"skore":67.8,"ano25":32.9,"spolu25":25.6,"stan25":12.7,"pirati25":7.5,"i3":60.4,"i2":89.1,"lat":49.5663,"lon":15.9227,"cluster":"Prosperující regiony","ucast25":73.5,"ucast21":70.2,"d_ucast":3.3,"d_ano":8.0,"spd25":6.8,"motor25":7.0,"stacilo25":4.6,"populist25":51.2},{"name":"Blansko","pop":57368,"skore":67.9,"ano25":33.6,"spolu25":24.9,"stan25":8.8,"pirati25":8.9,"i3":52.4,"i2":88.2,"lat":49.3749,"lon":16.6793,"cluster":"Prosperující regiony","ucast25":72.9,"ucast21":69.3,"d_ucast":3.6,"d_ano":7.7,"spd25":7.9,"motor25":6.7,"stacilo25":5.4,"populist25":53.7},{"name":"Boskovice","pop":53899,"skore":54.0,"ano25":36.5,"spolu25":23.0,"stan25":8.4,"pirati25":7.4,"i3":37.8,"i2":83.5,"lat":49.527,"lon":16.5976,"cluster":"Prosperující regiony","ucast25":72.3,"ucast21":68.4,"d_ucast":3.9,"d_ano":9.6,"spd25":8.7,"motor25":7.3,"stacilo25":5.3,"populist25":57.9},{"name":"Brno","pop":402739,"skore":69.3,"ano25":25.2,"spolu25":32.8,"stan25":10.5,"pirati25":13.1,"i3":60.8,"i2":57.1,"lat":49.2068,"lon":16.5888,"cluster":"Prosperující regiony","ucast25":66.6,"ucast21":64.7,"d_ucast":2.0,"d_ano":3.7,"spd25":6.5,"motor25":5.2,"stacilo25":3.6,"populist25":40.5},{"name":"Břeclav","pop":59492,"skore":60.0,"ano25":37.3,"spolu25":23.1,"stan25":8.6,"pirati25":7.7,"i3":56.4,"i2":49.8,"lat":48.7801,"lon":16.8748,"cluster":"Města v sociálním napětí","ucast25":69.0,"ucast21":64.1,"d_ucast":4.9,"d_ano":9.6,"spd25":8.3,"motor25":6.5,"stacilo25":5.1,"populist25":57.2},{"name":"Bučovice","pop":16827,"skore":41.6,"ano25":38.1,"spolu25":24.1,"stan25":5.9,"pirati25":5.7,"i3":14.9,"i2":67.5,"lat":49.1532,"lon":17.0511,"cluster":"Města v sociálním napětí","ucast25":69.1,"ucast21":64.4,"d_ucast":4.8,"d_ano":12.1,"spd25":10.1,"motor25":6.8,"stacilo25":6.3,"populist25":61.2},{"name":"Hodonín","pop":59377,"skore":57.3,"ano25":39.0,"spolu25":23.4,"stan25":7.2,"pirati25":7.1,"i3":29.9,"i2":56.5,"lat":48.8841,"lon":17.0691,"cluster":"Města v sociálním napětí","ucast25":67.9,"ucast21":63.1,"d_ucast":4.9,"d_ano":10.6,"spd25":9.4,"motor25":5.9,"stacilo25":4.9,"populist25":59.2},{"name":"Hustopeče","pop":37731,"skore":57.0,"ano25":35.5,"spolu25":25.1,"stan25":9.6,"pirati25":6.9,"i3":52.1,"i2":86.1,"lat":48.9586,"lon":16.7849,"cluster":"Prosperující regiony","ucast25":73.5,"ucast21":69.1,"d_ucast":4.4,"d_ano":9.9,"spd25":7.4,"motor25":7.0,"stacilo25":4.5,"populist25":54.4},{"name":"Ivančice","pop":25439,"skore":46.3,"ano25":37.6,"spolu25":21.0,"stan25":8.0,"pirati25":7.4,"i3":31.7,"i2":62.2,"lat":49.1025,"lon":16.3669,"cluster":"Města v sociálním napětí","ucast25":70.3,"ucast21":66.0,"d_ucast":4.3,"d_ano":9.6,"spd25":8.5,"motor25":7.2,"stacilo25":5.7,"populist25":59.0},{"name":"Kuřim","pop":24774,"skore":64.7,"ano25":25.9,"spolu25":31.6,"stan25":13.0,"pirati25":8.9,"i3":35.5,"i2":84.2,"lat":49.2844,"lon":16.5007,"cluster":"Prosperující regiony","ucast25":75.1,"ucast21":73.1,"d_ucast":2.0,"d_ano":3.8,"spd25":6.9,"motor25":6.8,"stacilo25":3.8,"populist25":43.5},{"name":"Kyjov","pop":55070,"skore":54.1,"ano25":36.9,"spolu25":24.7,"stan25":8.8,"pirati25":6.1,"i3":38.0,"i2":69.9,"lat":49.009,"lon":17.1121,"cluster":"Vnitřní periferie","ucast25":71.0,"ucast21":66.9,"d_ucast":4.1,"d_ano":9.7,"spd25":8.5,"motor25":6.5,"stacilo25":5.2,"populist25":57.1},{"name":"Mikulov","pop":20861,"skore":59.4,"ano25":35.3,"spolu25":24.5,"stan25":8.9,"pirati25":6.9,"i3":65.1,"i2":60.4,"lat":48.84,"lon":16.5891,"cluster":"Prosperující regiony","ucast25":69.4,"ucast21":64.2,"d_ucast":5.2,"d_ano":9.2,"spd25":7.9,"motor25":6.7,"stacilo25":5.3,"populist25":55.1},{"name":"Moravský Krumlov","pop":22725,"skore":36.0,"ano25":45.6,"spolu25":18.3,"stan25":6.9,"pirati25":5.5,"i3":23.9,"i2":66.3,"lat":49.0012,"lon":16.2913,"cluster":"Vnitřní periferie","ucast25":69.9,"ucast21":65.4,"d_ucast":4.5,"d_ano":12.1,"spd25":7.8,"motor25":6.3,"stacilo25":5.4,"populist25":65.1},{"name":"Pohořelice","pop":16198,"skore":53.4,"ano25":39.9,"spolu25":20.4,"stan25":7.2,"pirati25":6.6,"i3":52.3,"i2":79.0,"lat":48.9554,"lon":16.5149,"cluster":"Prosperující regiony","ucast25":71.2,"ucast21":68.1,"d_ucast":3.1,"d_ano":15.1,"spd25":7.5,"motor25":6.8,"stacilo25":4.0,"populist25":58.2},{"name":"Rosice","pop":27164,"skore":50.5,"ano25":36.2,"spolu25":24.3,"stan25":9.7,"pirati25":7.6,"i3":24.2,"i2":87.3,"lat":49.211,"lon":16.3433,"cluster":"Prosperující regiony","ucast25":72.9,"ucast21":69.0,"d_ucast":3.9,"d_ano":7.9,"spd25":7.4,"motor25":6.7,"stacilo25":5.0,"populist25":55.2},{"name":"Slavkov u Brna","pop":25212,"skore":50.7,"ano25":30.2,"spolu25":28.7,"stan25":10.3,"pirati25":7.9,"i3":12.4,"i2":95.0,"lat":49.1169,"lon":16.8646,"cluster":"Prosperující regiony","ucast25":73.5,"ucast21":69.6,"d_ucast":3.9,"d_ano":8.5,"spd25":7.9,"motor25":6.8,"stacilo25":4.6,"populist25":49.5},{"name":"Šlapanice","pop":73619,"skore":58.3,"ano25":26.2,"spolu25":34.1,"stan25":11.1,"pirati25":8.9,"i3":30.3,"i2":100.0,"lat":49.1863,"lon":16.6636,"cluster":"Prosperující regiony","ucast25":76.6,"ucast21":74.6,"d_ucast":2.1,"d_ano":4.9,"spd25":6.8,"motor25":6.5,"stacilo25":3.4,"populist25":42.9},{"name":"Tišnov","pop":32815,"skore":58.1,"ano25":31.5,"spolu25":26.8,"stan25":12.2,"pirati25":7.9,"i3":51.5,"i2":97.3,"lat":49.3687,"lon":16.3804,"cluster":"Prosperující regiony","ucast25":73.9,"ucast21":71.3,"d_ucast":2.6,"d_ano":6.7,"spd25":7.1,"motor25":6.8,"stacilo25":4.7,"populist25":50.1},{"name":"Veselí nad Moravou","pop":36507,"skore":59.5,"ano25":39.1,"spolu25":24.6,"stan25":8.5,"pirati25":6.2,"i3":51.8,"i2":69.3,"lat":48.8955,"lon":17.441,"cluster":"Vnitřní periferie","ucast25":69.9,"ucast21":64.0,"d_ucast":5.9,"d_ano":9.6,"spd25":8.3,"motor25":5.5,"stacilo25":4.9,"populist25":57.8},{"name":"Vyškov","pop":53598,"skore":56.8,"ano25":37.7,"spolu25":21.6,"stan25":8.2,"pirati25":7.4,"i3":34.4,"i2":88.0,"lat":49.3069,"lon":16.9699,"cluster":"Prosperující regiony","ucast25":70.6,"ucast21":66.3,"d_ucast":4.3,"d_ano":10.2,"spd25":8.8,"motor25":7.3,"stacilo25":5.7,"populist25":59.5},{"name":"Znojmo","pop":93322,"skore":49.4,"ano25":44.8,"spolu25":17.9,"stan25":7.8,"pirati25":6.0,"i3":66.4,"i2":53.7,"lat":48.8849,"lon":16.0567,"cluster":"Vnitřní periferie","ucast25":68.0,"ucast21":62.9,"d_ucast":5.1,"d_ano":10.9,"spd25":8.8,"motor25":6.4,"stacilo25":5.1,"populist25":65.1},{"name":"Židlochovice","pop":34606,"skore":48.7,"ano25":33.6,"spolu25":27.1,"stan25":9.8,"pirati25":7.8,"i3":13.1,"i2":91.6,"lat":49.0521,"lon":16.6424,"cluster":"Prosperující regiony","ucast25":73.5,"ucast21":70.6,"d_ucast":2.9,"d_ano":7.4,"spd25":7.4,"motor25":7.0,"stacilo25":3.6,"populist25":51.6},{"name":"Hranice","pop":34387,"skore":48.8,"ano25":37.8,"spolu25":19.8,"stan25":10.5,"pirati25":6.0,"i3":36.5,"i2":60.1,"lat":49.5662,"lon":17.7428,"cluster":"Vnitřní periferie","ucast25":69.7,"ucast21":65.5,"d_ucast":4.1,"d_ano":9.2,"spd25":9.5,"motor25":7.5,"stacilo25":5.5,"populist25":60.3},{"name":"Jeseník","pop":36492,"skore":52.4,"ano25":42.8,"spolu25":18.0,"stan25":6.5,"pirati25":5.9,"i3":83.5,"i2":32.4,"lat":50.2774,"lon":17.1486,"cluster":"Vnitřní periferie","ucast25":65.8,"ucast21":59.8,"d_ucast":6.0,"d_ano":8.8,"spd25":12.2,"motor25":6.3,"stacilo25":5.8,"populist25":67.1},{"name":"Konice","pop":11792,"skore":38.0,"ano25":44.3,"spolu25":18.2,"stan25":7.6,"pirati25":5.4,"i3":23.3,"i2":57.5,"lat":49.5883,"lon":16.8748,"cluster":"Vnitřní periferie","ucast25":70.8,"ucast21":66.9,"d_ucast":3.8,"d_ano":14.0,"spd25":9.0,"motor25":5.8,"stacilo25":5.3,"populist25":64.4},{"name":"Lipník nad Bečvou","pop":15314,"skore":54.8,"ano25":41.7,"spolu25":18.1,"stan25":7.7,"pirati25":6.4,"i3":29.6,"i2":82.7,"lat":49.5203,"lon":17.5895,"cluster":"Prosperující regiony","ucast25":68.5,"ucast21":64.6,"d_ucast":3.9,"d_ano":10.6,"spd25":9.2,"motor25":6.9,"stacilo25":6.5,"populist25":64.4},{"name":"Litovel","pop":23568,"skore":49.9,"ano25":40.3,"spolu25":19.4,"stan25":8.7,"pirati25":6.4,"i3":33.7,"i2":71.3,"lat":49.6809,"lon":17.0238,"cluster":"Prosperující regiony","ucast25":69.6,"ucast21":66.4,"d_ucast":3.3,"d_ano":11.0,"spd25":8.8,"motor25":6.9,"stacilo25":5.6,"populist25":61.6},{"name":"Mohelnice","pop":19182,"skore":47.5,"ano25":42.5,"spolu25":16.5,"stan25":8.1,"pirati25":7.1,"i3":35.4,"i2":62.6,"lat":49.7806,"lon":16.8979,"cluster":"Prosperující regiony","ucast25":71.6,"ucast21":65.4,"d_ucast":6.2,"d_ano":11.6,"spd25":9.7,"motor25":7.2,"stacilo25":5.3,"populist25":64.6},{"name":"Olomouc","pop":169437,"skore":72.9,"ano25":32.5,"spolu25":24.2,"stan25":11.3,"pirati25":10.1,"i3":61.0,"i2":83.8,"lat":49.6141,"lon":17.3669,"cluster":"Prosperující regiony","ucast25":69.9,"ucast21":67.1,"d_ucast":2.8,"d_ano":6.2,"spd25":7.8,"motor25":6.5,"stacilo25":4.4,"populist25":51.1},{"name":"Prostějov","pop":97131,"skore":54.5,"ano25":39.2,"spolu25":19.9,"stan25":8.7,"pirati25":6.4,"i3":27.2,"i2":68.7,"lat":49.4475,"lon":17.0641,"cluster":"Prosperující regiony","ucast25":67.6,"ucast21":64.3,"d_ucast":3.2,"d_ano":10.0,"spd25":10.6,"motor25":6.5,"stacilo25":5.3,"populist25":61.7},{"name":"Přerov","pop":77585,"skore":48.1,"ano25":42.8,"spolu25":17.4,"stan25":7.4,"pirati25":6.5,"i3":10.8,"i2":47.5,"lat":49.4313,"lon":17.424,"cluster":"Města v sociálním napětí","ucast25":66.9,"ucast21":63.3,"d_ucast":3.6,"d_ano":8.8,"spd25":10.6,"motor25":6.8,"stacilo25":5.6,"populist25":65.8},{"name":"Šternberk","pop":23987,"skore":42.2,"ano25":40.6,"spolu25":19.1,"stan25":7.8,"pirati25":7.3,"i3":34.2,"i2":53.5,"lat":49.7597,"lon":17.3663,"cluster":"Vnitřní periferie","ucast25":66.1,"ucast21":61.8,"d_ucast":4.3,"d_ano":10.1,"spd25":10.1,"motor25":6.8,"stacilo25":4.8,"populist25":62.3},{"name":"Šumperk","pop":67361,"skore":55.1,"ano25":41.3,"spolu25":18.8,"stan25":9.8,"pirati25":6.0,"i3":66.1,"i2":44.3,"lat":50.0428,"lon":17.0032,"cluster":"Vnitřní periferie","ucast25":68.2,"ucast21":63.3,"d_ucast":5.0,"d_ano":9.9,"spd25":9.5,"motor25":6.6,"stacilo25":5.1,"populist25":62.5},{"name":"Uničov","pop":22407,"skore":39.1,"ano25":41.4,"spolu25":17.1,"stan25":10.2,"pirati25":7.1,"i3":13.1,"i2":61.3,"lat":49.7962,"lon":17.1261,"cluster":"Prosperující regiony","ucast25":67.9,"ucast21":62.5,"d_ucast":5.4,"d_ano":11.5,"spd25":8.6,"motor25":6.5,"stacilo25":5.8,"populist25":62.3},{"name":"Zábřeh","pop":32857,"skore":47.8,"ano25":40.5,"spolu25":19.1,"stan25":10.2,"pirati25":5.8,"i3":5.8,"i2":78.8,"lat":49.8886,"lon":16.8629,"cluster":"Prosperující regiony","ucast25":71.3,"ucast21":66.5,"d_ucast":4.8,"d_ano":9.6,"spd25":9.0,"motor25":6.7,"stacilo25":5.6,"populist25":61.8},{"name":"Bystřice pod Hostýnem","pop":15120,"skore":56.0,"ano25":38.0,"spolu25":19.9,"stan25":9.8,"pirati25":6.5,"i3":52.1,"i2":66.3,"lat":49.3936,"lon":17.7256,"cluster":"Vnitřní periferie","ucast25":69.3,"ucast21":65.8,"d_ucast":3.5,"d_ano":9.9,"spd25":10.6,"motor25":6.9,"stacilo25":4.9,"populist25":60.3},{"name":"Holešov","pop":21793,"skore":51.0,"ano25":36.2,"spolu25":21.0,"stan25":9.0,"pirati25":7.0,"i3":16.3,"i2":89.7,"lat":49.3345,"lon":17.5645,"cluster":"Prosperující regiony","ucast25":70.3,"ucast21":67.5,"d_ucast":2.9,"d_ano":7.1,"spd25":10.3,"motor25":7.2,"stacilo25":6.0,"populist25":59.7},{"name":"Kroměříž","pop":67217,"skore":55.0,"ano25":39.6,"spolu25":19.6,"stan25":7.8,"pirati25":7.0,"i3":33.5,"i2":61.5,"lat":49.2468,"lon":17.3203,"cluster":"Prosperující regiony","ucast25":68.4,"ucast21":65.0,"d_ucast":3.4,"d_ano":9.7,"spd25":9.8,"motor25":6.8,"stacilo25":6.1,"populist25":62.3},{"name":"Luhačovice","pop":18455,"skore":75.7,"ano25":35.8,"spolu25":25.7,"stan25":10.3,"pirati25":7.6,"i3":76.1,"i2":94.4,"lat":49.108,"lon":17.8194,"cluster":"Prosperující regiony","ucast25":73.2,"ucast21":71.2,"d_ucast":2.0,"d_ano":6.7,"spd25":7.6,"motor25":5.7,"stacilo25":4.4,"populist25":53.5},{"name":"Otrokovice","pop":33660,"skore":55.0,"ano25":39.3,"spolu25":19.9,"stan25":8.9,"pirati25":8.4,"i3":19.7,"i2":62.9,"lat":49.1897,"lon":17.5091,"cluster":"Prosperující regiony","ucast25":67.9,"ucast21":65.6,"d_ucast":2.3,"d_ano":7.6,"spd25":9.9,"motor25":6.2,"stacilo25":4.5,"populist25":59.8},{"name":"Rožnov pod Radhoštěm","pop":34846,"skore":75.9,"ano25":32.2,"spolu25":25.7,"stan25":10.7,"pirati25":7.9,"i3":72.8,"i2":82.5,"lat":49.4433,"lon":18.1952,"cluster":"Prosperující regiony","ucast25":69.5,"ucast21":67.7,"d_ucast":1.9,"d_ano":8.9,"spd25":8.7,"motor25":7.7,"stacilo25":4.4,"populist25":53.0},{"name":"Uherské Hradiště","pop":89530,"skore":70.3,"ano25":33.9,"spolu25":25.6,"stan25":11.4,"pirati25":7.7,"i3":62.9,"i2":81.8,"lat":49.071,"lon":17.4274,"cluster":"Prosperující regiony","ucast25":70.4,"ucast21":68.5,"d_ucast":1.9,"d_ano":7.6,"spd25":7.5,"motor25":6.0,"stacilo25":4.9,"populist25":52.3},{"name":"Uherský Brod","pop":51668,"skore":60.2,"ano25":36.4,"spolu25":23.7,"stan25":9.8,"pirati25":6.6,"i3":41.4,"i2":82.9,"lat":48.9847,"lon":17.7187,"cluster":"Prosperující regiony","ucast25":70.0,"ucast21":66.8,"d_ucast":3.1,"d_ano":9.0,"spd25":9.1,"motor25":6.5,"stacilo25":4.7,"populist25":56.7},{"name":"Valašské Klobouky","pop":22709,"skore":53.4,"ano25":36.0,"spolu25":23.4,"stan25":12.7,"pirati25":6.4,"i3":43.9,"i2":80.2,"lat":49.1153,"lon":17.9955,"cluster":"Prosperující regiony","ucast25":69.7,"ucast21":65.8,"d_ucast":3.8,"d_ano":9.2,"spd25":8.3,"motor25":6.6,"stacilo25":3.8,"populist25":54.7},{"name":"Valašské Meziříčí","pop":42575,"skore":57.9,"ano25":35.8,"spolu25":24.3,"stan25":9.8,"pirati25":7.2,"i3":38.1,"i2":61.4,"lat":49.4665,"lon":17.9317,"cluster":"Prosperující regiony","ucast25":69.7,"ucast21":67.6,"d_ucast":2.1,"d_ano":8.7,"spd25":8.6,"motor25":7.1,"stacilo25":4.3,"populist25":55.7},{"name":"Vizovice","pop":17235,"skore":54.7,"ano25":32.0,"spolu25":24.8,"stan25":11.2,"pirati25":7.5,"i3":41.6,"i2":87.5,"lat":49.2468,"lon":17.8526,"cluster":"Prosperující regiony","ucast25":71.2,"ucast21":69.0,"d_ucast":2.1,"d_ano":7.3,"spd25":8.8,"motor25":7.9,"stacilo25":4.0,"populist25":52.8},{"name":"Vsetín","pop":64224,"skore":60.4,"ano25":33.7,"spolu25":25.0,"stan25":9.9,"pirati25":6.8,"i3":58.7,"i2":60.3,"lat":49.3162,"lon":18.0868,"cluster":"Prosperující regiony","ucast25":67.7,"ucast21":65.6,"d_ucast":2.2,"d_ano":9.3,"spd25":9.2,"motor25":7.3,"stacilo25":4.8,"populist25":55.1},{"name":"Zlín","pop":99966,"skore":76.1,"ano25":30.9,"spolu25":27.9,"stan25":11.2,"pirati25":8.9,"i3":56.8,"i2":85.5,"lat":49.2326,"lon":17.687,"cluster":"Prosperující regiony","ucast25":71.2,"ucast21":69.8,"d_ucast":1.4,"d_ano":4.7,"spd25":8.0,"motor25":6.7,"stacilo25":3.7,"populist25":49.3},{"name":"Bílovec","pop":25791,"skore":39.8,"ano25":43.6,"spolu25":18.1,"stan25":8.4,"pirati25":6.8,"i3":8.5,"i2":53.1,"lat":49.7463,"lon":18.0355,"cluster":"Města v sociálním napětí","ucast25":69.2,"ucast21":64.1,"d_ucast":5.1,"d_ano":10.4,"spd25":7.9,"motor25":6.3,"stacilo25":5.9,"populist25":63.7},{"name":"Bohumín","pop":33428,"skore":37.2,"ano25":49.7,"spolu25":13.1,"stan25":6.2,"pirati25":6.0,"i3":2.4,"i2":26.5,"lat":49.8977,"lon":18.3803,"cluster":"Města v sociálním napětí","ucast25":64.6,"ucast21":58.3,"d_ucast":6.3,"d_ano":13.7,"spd25":9.5,"motor25":6.2,"stacilo25":6.2,"populist25":71.6},{"name":"Bruntál","pop":34837,"skore":42.8,"ano25":48.9,"spolu25":12.2,"stan25":6.3,"pirati25":5.0,"i3":56.0,"i2":18.9,"lat":49.9853,"lon":17.456,"cluster":"Vnitřní periferie","ucast25":64.7,"ucast21":57.0,"d_ucast":7.7,"d_ano":13.1,"spd25":10.8,"motor25":6.5,"stacilo25":7.4,"populist25":73.6},{"name":"Český Těšín","pop":24486,"skore":54.3,"ano25":44.0,"spolu25":20.4,"stan25":6.4,"pirati25":7.0,"i3":15.0,"i2":40.1,"lat":49.7446,"lon":18.5815,"cluster":"Města v sociálním napětí","ucast25":64.4,"ucast21":59.0,"d_ucast":5.4,"d_ano":11.4,"spd25":8.4,"motor25":6.0,"stacilo25":4.9,"populist25":63.3},{"name":"Frenštát pod Radhoštěm","pop":19566,"skore":58.5,"ano25":36.3,"spolu25":22.1,"stan25":9.1,"pirati25":8.4,"i3":57.0,"i2":69.9,"lat":49.5357,"lon":18.1959,"cluster":"Prosperující regiony","ucast25":72.1,"ucast21":67.7,"d_ucast":4.4,"d_ano":7.6,"spd25":9.2,"motor25":6.6,"stacilo25":5.0,"populist25":57.1},{"name":"Frýdek-Místek","pop":112659,"skore":59.1,"ano25":40.4,"spolu25":19.8,"stan25":8.6,"pirati25":7.4,"i3":41.1,"i2":65.6,"lat":49.6415,"lon":18.4013,"cluster":"Prosperující regiony","ucast25":70.1,"ucast21":65.8,"d_ucast":4.3,"d_ano":8.9,"spd25":7.7,"motor25":6.9,"stacilo25":5.8,"populist25":60.8},{"name":"Frýdlant nad Ostravicí","pop":25334,"skore":61.1,"ano25":35.2,"spolu25":21.7,"stan25":12.1,"pirati25":6.8,"i3":76.2,"i2":72.7,"lat":49.5105,"lon":18.3962,"cluster":"Prosperující regiony","ucast25":73.0,"ucast21":69.2,"d_ucast":3.8,"d_ano":6.8,"spd25":8.2,"motor25":7.2,"stacilo25":5.8,"populist25":56.4},{"name":"Havířov","pop":84243,"skore":40.7,"ano25":49.2,"spolu25":14.8,"stan25":6.5,"pirati25":6.1,"i3":0.0,"i2":19.5,"lat":49.7727,"lon":18.4755,"cluster":"Města v sociálním napětí","ucast25":62.1,"ucast21":56.6,"d_ucast":5.6,"d_ano":11.6,"spd25":8.6,"motor25":6.1,"stacilo25":5.7,"populist25":69.7},{"name":"Hlučín","pop":40210,"skore":50.2,"ano25":44.6,"spolu25":19.7,"stan25":9.0,"pirati25":6.0,"i3":4.1,"i2":81.6,"lat":49.9245,"lon":18.1938,"cluster":"Prosperující regiony","ucast25":72.0,"ucast21":66.2,"d_ucast":5.9,"d_ano":8.2,"spd25":6.6,"motor25":6.9,"stacilo25":4.2,"populist25":62.4},{"name":"Jablunkov","pop":22399,"skore":54.9,"ano25":40.1,"spolu25":21.8,"stan25":8.1,"pirati25":6.6,"i3":36.9,"i2":88.6,"lat":49.5512,"lon":18.7362,"cluster":"Prosperující regiony","ucast25":67.1,"ucast21":61.4,"d_ucast":5.7,"d_ano":11.0,"spd25":8.7,"motor25":6.6,"stacilo25":4.3,"populist25":59.8},{"name":"Karviná","pop":60167,"skore":42.8,"ano25":57.6,"spolu25":10.0,"stan25":5.5,"pirati25":4.8,"i3":10.6,"i2":11.1,"lat":49.8546,"lon":18.5247,"cluster":"Města v sociálním napětí","ucast25":60.1,"ucast21":52.7,"d_ucast":7.4,"d_ano":13.8,"spd25":8.2,"motor25":5.2,"stacilo25":6.0,"populist25":77.0},{"name":"Kopřivnice","pop":40326,"skore":59.5,"ano25":36.8,"spolu25":20.4,"stan25":9.4,"pirati25":7.5,"i3":29.6,"i2":62.1,"lat":49.6359,"lon":18.1436,"cluster":"Prosperující regiony","ucast25":69.4,"ucast21":65.6,"d_ucast":3.8,"d_ano":9.1,"spd25":9.2,"motor25":7.0,"stacilo25":6.3,"populist25":59.3},{"name":"Kravaře","pop":21179,"skore":40.4,"ano25":44.3,"spolu25":21.4,"stan25":8.3,"pirati25":5.4,"i3":7.8,"i2":75.8,"lat":49.9813,"lon":18.0578,"cluster":"Města v sociálním napětí","ucast25":72.5,"ucast21":64.7,"d_ucast":7.8,"d_ano":7.2,"spd25":6.6,"motor25":7.9,"stacilo25":3.5,"populist25":62.2},{"name":"Krnov","pop":38955,"skore":33.9,"ano25":48.0,"spolu25":13.9,"stan25":7.0,"pirati25":5.4,"i3":36.8,"i2":18.3,"lat":50.1601,"lon":17.5748,"cluster":"Vnitřní periferie","ucast25":64.6,"ucast21":58.1,"d_ucast":6.6,"d_ano":11.0,"spd25":9.6,"motor25":6.7,"stacilo25":6.8,"populist25":70.9},{"name":"Nový Jičín","pop":48802,"skore":48.8,"ano25":37.4,"spolu25":20.1,"stan25":8.6,"pirati25":8.0,"i3":21.1,"i2":65.3,"lat":49.6055,"lon":17.9912,"cluster":"Prosperující regiony","ucast25":68.8,"ucast21":64.7,"d_ucast":4.1,"d_ano":9.8,"spd25":8.6,"motor25":6.9,"stacilo25":7.2,"populist25":60.1},{"name":"Odry","pop":16846,"skore":33.4,"ano25":44.4,"spolu25":18.1,"stan25":6.7,"pirati25":6.5,"i3":21.6,"i2":42.1,"lat":49.6967,"lon":17.8345,"cluster":"Vnitřní periferie","ucast25":67.4,"ucast21":60.9,"d_ucast":6.5,"d_ano":11.3,"spd25":7.7,"motor25":8.2,"stacilo25":5.5,"populist25":65.9},{"name":"Opava","pop":99929,"skore":56.4,"ano25":40.9,"spolu25":20.9,"stan25":9.5,"pirati25":7.3,"i3":29.5,"i2":69.3,"lat":49.914,"lon":17.8517,"cluster":"Prosperující regiony","ucast25":70.1,"ucast21":65.3,"d_ucast":4.8,"d_ano":9.1,"spd25":7.2,"motor25":6.5,"stacilo25":4.8,"populist25":59.5},{"name":"Orlová","pop":36095,"skore":34.2,"ano25":55.9,"spolu25":9.9,"stan25":4.8,"pirati25":5.1,"i3":4.0,"i2":12.2,"lat":49.8467,"lon":18.4256,"cluster":"Města v sociálním napětí","ucast25":60.8,"ucast21":53.1,"d_ucast":7.7,"d_ano":16.3,"spd25":8.7,"motor25":5.8,"stacilo25":6.9,"populist25":77.3},{"name":"Ostrava","pop":316155,"skore":56.2,"ano25":43.0,"spolu25":18.1,"stan25":9.0,"pirati25":7.8,"i3":36.5,"i2":32.5,"lat":49.8059,"lon":18.2281,"cluster":"Města v sociálním napětí","ucast25":63.9,"ucast21":58.4,"d_ucast":5.5,"d_ano":9.4,"spd25":7.6,"motor25":6.3,"stacilo25":5.3,"populist25":62.2},{"name":"Rýmařov","pop":14496,"skore":42.6,"ano25":47.9,"spolu25":12.3,"stan25":7.0,"pirati25":6.1,"i3":78.3,"i2":20.4,"lat":49.944,"lon":17.2706,"cluster":"Vnitřní periferie","ucast25":65.9,"ucast21":58.6,"d_ucast":7.3,"d_ano":12.5,"spd25":12.0,"motor25":6.0,"stacilo25":6.1,"populist25":72.1},{"name":"Třinec","pop":53605,"skore":63.4,"ano25":41.8,"spolu25":20.1,"stan25":7.6,"pirati25":6.7,"i3":27.3,"i2":69.5,"lat":49.6479,"lon":18.6523,"cluster":"Prosperující regiony","ucast25":64.8,"ucast21":60.4,"d_ucast":4.4,"d_ano":10.5,"spd25":8.9,"motor25":6.9,"stacilo25":4.8,"populist25":62.4},{"name":"Vítkov","pop":13105,"skore":28.2,"ano25":51.9,"spolu25":14.0,"stan25":5.9,"pirati25":4.7,"i3":42.5,"i2":19.8,"lat":49.8005,"lon":17.7177,"cluster":"Vnitřní periferie","ucast25":65.2,"ucast21":57.1,"d_ucast":8.0,"d_ano":11.5,"spd25":8.7,"motor25":6.6,"stacilo25":5.7,"populist25":72.8}]}